Name,Latitude,Longitude,Height [m]
Scafell Pike,54.45409824,-3.212285238,978
Jesus Green,52.211319,0.122421,5
Castle Hill,52.212003,0.114717,32
Sidney Sussex Street,52.20708,0.119794,10
Train Tracks,52.193068,0.136286,16
A14 J33,52.236754,0.155195,10
Department,52.209182,0.086157,16
House of Commons,51.499898,-0.12466,4
Holme Fen Trail,52.493712,-0.234567,-2
Great Chishill,52.030889,0.074509,139
